{
"type": "FeatureCollection",
"name": "cascos_haciendas",
"crs": { "type": "name", "properties": { "name": "urn:ogc:def:crs:OGC:1.3:CRS84" } },
"features": [
{ "type": "Feature", "properties": { "Hacienda": "Aguayo", "Distrito": "Centro", "Municipio": "Santa Cruz Xoxocotlan", "Ubicación": "Agencia de Policia Aguayo", "Foto": null, "Video": null, "Prop_1897": "Manuel Mejia", "Prop_1905": "Nicolas  Trápaga", "Pr_1917-40": "Margarita Trápaga V da de Díaz Ordaz" }, "geometry": { "type": "Point", "coordinates": [ -96.743768079208095, 17.007688110854946 ] } },
{ "type": "Feature", "properties": { "Hacienda": "Aguilera", "Distrito": "Centro", "Municipio": "Oaxaca de Juarez", "Ubicación": "Facultad de Medicina y Cirugia UABJO", "Foto": "https://drive.google.com/file/d/1HGmfUujhxmC-e_Fk0NC0vQQAP4QaQXBG/view?usp=sharing", "Video": null, "Prop_1897": "Testamentaría de Jiménez", "Prop_1905": "Manueka H de Jiménez", "Pr_1917-40": "Juan N. Jiménez" }, "geometry": { "type": "Point", "coordinates": [ -96.718866779532306, 17.082863714728244 ] } },
{ "type": "Feature", "properties": { "Hacienda": "Aleman", "Distrito": "Etla", "Municipio": "San Andres Zautla", "Ubicación": "Ex hacienda Aleman", "Foto": "https://drive.google.com/file/d/1B-kVvFH6HB1Gsv6-XGLFTcH0YsjHl3DE/view?usp=sharing", "Video": null, "Prop_1897": "Testamentaría José Antonio Alvarez", "Prop_1905": "Juan Baigts", "Pr_1917-40": "Manuel Baigts" }, "geometry": { "type": "Point", "coordinates": [ -96.839178145534433, 17.195463001995595 ] } },
{ "type": "Feature", "properties": { "Hacienda": "Alferez", "Distrito": "Tlacolula", "Municipio": "Tlacolula de Matamoros", "Ubicación": "Alférez", "Foto": "https://drive.google.com/file/d/1k0y821g-XHIjMxO9LspfpjMNQ4VgB4Tz/view?usp=sharing", "Video": "https://youtu.be/AxWqMlNtZC8?si=Kya42FAtv7dhRkCm", "Prop_1897": "Arturo Fenochio", "Prop_1905": "Arturo Fenochio", "Pr_1917-40": "Soc. ROgelio Gómez y Hno" }, "geometry": { "type": "Point", "coordinates": [ -96.492608108921118, 16.941436768656811 ] } },
{ "type": "Feature", "properties": { "Hacienda": "Aragón", "Distrito": "Cuicatlan", "Municipio": "Santiago Nacaltepec", "Ubicación": "San José Aragón", "Foto": null, "Video": null, "Prop_1897": "s/d", "Prop_1905": "s/d", "Pr_1917-40": "s/d" }, "geometry": { "type": "Point", "coordinates": [ -96.829179896422175, 17.494958026269373 ] } },
{ "type": "Feature", "properties": { "Hacienda": "Aranjuez", "Distrito": "Centro", "Municipio": "Tlalixtac de Cabrera", "Ubicación": "Ex Hacienda El Aranjuez", "Foto": "https://drive.google.com/file/d/1cqoZAENEd52m3sL38AZ6oG_DBV-K983F/view?usp=sharing", "Video": "https://youtu.be/N44YnZpBMmg?si=198wGSXlubLURSHl", "Prop_1897": "Mariano Bonavides", "Prop_1905": "Pablo Mexueiro", "Pr_1917-40": "Gonzalo Meixuero" }, "geometry": { "type": "Point", "coordinates": [ -96.619338184586908, 17.075863871461653 ] } },
{ "type": "Feature", "properties": { "Hacienda": "Arrazola", "Distrito": "Centro", "Municipio": "Santa Cruz Xoxocotlan", "Ubicación": "Arrazola", "Foto": "https://drive.google.com/file/d/1cMX2TaqJHwV8_L1asIXofYb07FmI_tsG/view?usp=sharing", "Video": null, "Prop_1897": "Pedro Larragaña", "Prop_1905": "Pedro Larragaña", "Pr_1917-40": "Pedro Larragaña/Arturo Larragaña/ Carmen Larragaña" }, "geometry": { "type": "Point", "coordinates": [ -96.788710792872592, 17.038516084661314 ] } },
{ "type": "Feature", "properties": { "Hacienda": "Blanca", "Distrito": "Etla", "Municipio": "San Pablo Etla", "Ubicación": "Hacienda Blanca Agencia de Policia", "Foto": "https://drive.google.com/file/d/1NXT6a3YI3r4MWa2pPWx1KbSfI3XRNcxg/view?usp=sharing", "Video": "https://youtu.be/Zi12FZlTPAw?si=tPB7xDijnIo7qs8F", "Prop_1897": "Fam. Garmedia", "Prop_1905": "Nicolas Moncalián", "Pr_1917-40": "Dra. María Trápaga V da de Moncalián" }, "geometry": { "type": "Point", "coordinates": [ -96.777490834973946, 17.134403289311894 ] } },
{ "type": "Feature", "properties": { "Hacienda": "Boca de los Río", "Distrito": "Etla", "Municipio": "San Juan Bautista Atatlahuaca", "Ubicación": "Zoquiápam Boca de los Ríos", "Foto": null, "Video": null, "Prop_1897": "s/d", "Prop_1905": "Gral. Ignacio Mejía", "Pr_1917-40": "Francisco Harold Woodhouse-Sra. Marpia Ibarronnde Woodhouse/ Alberto D. Akin" }, "geometry": { "type": "Point", "coordinates": [ -96.848529607642106, 17.559032535957535 ] } },
{ "type": "Feature", "properties": { "Hacienda": "Cacique", "Distrito": "Etla", "Municipio": "Guadalupe Etla", "Ubicación": "Ex Hacienda El Cacique", "Foto": "https://drive.google.com/file/d/1RChKSl1A2trqvzECBGm_Gs_t6jOVFZsG/view?usp=sharing", "Video": null, "Prop_1897": "s/d", "Prop_1905": "Manuel de la Cajiga", "Pr_1917-40": "Testamentaría de la Cajiga" }, "geometry": { "type": "Point", "coordinates": [ -96.804206731523664, 17.166420517267813 ] } },
{ "type": "Feature", "properties": { "Hacienda": "Candelaria", "Distrito": "Tlacolula", "Municipio": "Tlacolula de Matamoros", "Ubicación": "Rancho Santa Inés", "Foto": null, "Video": null, "Prop_1897": "s/d", "Prop_1905": "s/d", "Pr_1917-40": "s/d" }, "geometry": { "type": "Point", "coordinates": [ -96.499561069220206, 16.928649486135861 ] } },
{ "type": "Feature", "properties": { "Hacienda": "Candiani", "Distrito": "Centro", "Municipio": "Oaxaca de Juarez", "Ubicación": "Ex Hacienda Candiani", "Foto": null, "Video": null, "Prop_1897": "Carlos y Demetrío Sodi", "Prop_1905": "Sodi Hermanos", "Pr_1917-40": "Señores sodi y Hermanos" }, "geometry": { "type": "Point", "coordinates": [ -96.717734902274316, 17.04557599777884 ] } },
{ "type": "Feature", "properties": { "Hacienda": "Carmen", "Distrito": "Centro", "Municipio": "Santa Cruz Xoxocotlan", "Ubicación": "Panteon San Juan Bautista de la Raya", "Foto": null, "Video": null, "Prop_1897": "Testamentaría Señora Salinas", "Prop_1905": "Carlos Gracida t N, Cruz, quienes la adquirieron después de la adjudicación dada a Ignacio Urda, ya que perteneció al Convento del Carmen", "Pr_1917-40": "Cristóbal Salinas quien la Heredó a Antonia Ramírez y Salinas, quien la heredó al prebitero Hipólito Ortiz y Camacho" }, "geometry": { "type": "Point", "coordinates": [ -96.726870768713809, 16.977035488077071 ] } },
{ "type": "Feature", "properties": { "Hacienda": "Cinco Señores", "Distrito": "Centro", "Municipio": "Oaxaca de Juarez", "Ubicación": "Agencia Municipal Cinco Señores", "Foto": null, "Video": null, "Prop_1897": "s/d", "Prop_1905": "Joaquín Salgado", "Pr_1917-40": "s/d" }, "geometry": { "type": "Point", "coordinates": [ -96.712470774709374, 17.054327514953968 ] } },
{ "type": "Feature", "properties": { "Hacienda": "De la Trinidad", "Distrito": "Etla", "Municipio": "San Lorenzo Cacaotepec", "Ubicación": "Lomas del porvenir", "Foto": null, "Video": null, "Prop_1897": "s/d", "Prop_1905": "s/d", "Pr_1917-40": "s/d" }, "geometry": { "type": "Point", "coordinates": [ -96.776888963733583, 17.146506965548848 ] } },
{ "type": "Feature", "properties": { "Hacienda": "De Rojas", "Distrito": "Tlacolula", "Municipio": "Rojas de Cuauhtemoc", "Ubicación": "Rojas de Cuahtemoc", "Foto": "https://drive.google.com/file/d/1MDc25pguTj04FSfTM7xbeL4sWDiFhBaY/view?usp=sharing", "Video": null, "Prop_1897": "s/d", "Prop_1905": "s/d", "Pr_1917-40": "s/d" }, "geometry": { "type": "Point", "coordinates": [ -96.618165636182496, 17.007988770388728 ] } },
{ "type": "Feature", "properties": { "Hacienda": "Del Rosario", "Distrito": "Centro", "Municipio": "San Sebastián Tutla", "Ubicación": "El Rosario", "Foto": "https://drive.google.com/file/d/1C9F8pn89JSSfMwJZ--GZux95UQ0BzVb3/view?usp=sharing", "Video": null, "Prop_1897": "Manuel M. Mimiaga y Camacho", "Prop_1905": "Manuel M. Mimiaga", "Pr_1917-40": "Manuel M. Mimiaga y Camacho" }, "geometry": { "type": "Point", "coordinates": [ -96.688315076719405, 17.047396759362805 ] } },
{ "type": "Feature", "properties": { "Hacienda": "Dolores", "Distrito": "Centro", "Municipio": "Oaxaca de Juarez", "Ubicación": "Volcanes", "Foto": null, "Video": null, "Prop_1897": "Mariano Bonavides", "Prop_1905": "Mariano Bonavides", "Pr_1917-40": "Testamentaría de Carlos Benavidas/ Se menciona que Mariano Bennavides la compró en febrero de 1885 a la Sra. Dolores Camacho" }, "geometry": { "type": "Point", "coordinates": [ -96.702589306584059, 17.086521666017234 ] } },
{ "type": "Feature", "properties": { "Hacienda": "Dolores Etla", "Distrito": "Etla", "Municipio": "Villa de Etla", "Ubicación": "INIFAP", "Foto": null, "Video": null, "Prop_1897": "Manuel de la Cajiga", "Prop_1905": "s/d", "Pr_1917-40": "Francisco de la Cajiga Toro" }, "geometry": { "type": "Point", "coordinates": [ -96.799616340421807, 17.187524831634668 ] } },
{ "type": "Feature", "properties": { "Hacienda": "Don Lope", "Distrito": "Tlacolula", "Municipio": "San Dionisio Ocotepec", "Ubicación": "Las Flores", "Foto": "https://drive.google.com/file/d/12YP9xIOrIu0suXb4zgajP9cN480edJm3/view?usp=sharing", "Video": null, "Prop_1897": "Joaquín Ma. Guergué", "Prop_1905": "Manuel Franco Cerqueda", "Pr_1917-40": "s/d" }, "geometry": { "type": "Point", "coordinates": [ -96.400584691215926, 16.828512620251384 ] } },
{ "type": "Feature", "properties": { "Hacienda": "Don Pedrillo", "Distrito": "Tlacolula", "Municipio": "Tlacolula de Matamoros", "Ubicación": "Hacienda Don Pedrillo", "Foto": null, "Video": "https://youtu.be/yk_7p7l5G-w?si=Fu1ztLWPs-R882aN", "Prop_1897": "Arturo Martínez", "Prop_1905": "s/d", "Pr_1917-40": "Margarita Tr+atapaga V da. de Díaz Ordaz" }, "geometry": { "type": "Point", "coordinates": [ -96.424084619048486, 16.934261216442302 ] } },
{ "type": "Feature", "properties": { "Hacienda": "El Capitá", "Distrito": "Ocotlan", "Municipio": "San Jose del Progeso", "Ubicación": "Rancho de los Vásquez", "Foto": null, "Video": null, "Prop_1897": "Benígno Amador", "Prop_1905": "Benígno Amador", "Pr_1917-40": "Octaviano Alarcón/ En 1930 era Silverio G. Zorrila, también aparece Rebeca Romero V da. de Mimiaga" }, "geometry": { "type": "Point", "coordinates": [ -96.690372218720043, 16.725466578737194 ] } },
{ "type": "Feature", "properties": { "Hacienda": "El Trapiche", "Distrito": "Zimatlán", "Municipio": "Santa Cruz Mixtepec", "Ubicación": "Ex Hacienda El Trapiche", "Foto": "https://drive.google.com/file/d/1RT1e5KvaNt77U613wHse8_yym07m0zKu/view?usp=sharing", "Video": null, "Prop_1897": "Wenceslao García", "Prop_1905": "s/d", "Pr_1917-40": "s/d" }, "geometry": { "type": "Point", "coordinates": [ -96.859201593217449, 16.762662828171017 ] } },
{ "type": "Feature", "properties": { "Hacienda": "El Vergel", "Distrito": "Ejutla", "Municipio": "Heroica Ciudad de Ejutla", "Ubicación": "El Vergel", "Foto": "https://drive.google.com/file/d/1-NDiyq80zoKB-4iw1UusoqSRwDSSsxze/view?usp=sharing", "Video": null, "Prop_1897": "Manuel y Mariano Mimíaga", "Prop_1905": "Manuel y Mariano Mimíaga", "Pr_1917-40": "Sociedad Rogelio Gómez y Hermano/ Sociedad Gómex" }, "geometry": { "type": "Point", "coordinates": [ -96.752607501603833, 16.638882388603559 ] } },
{ "type": "Feature", "properties": { "Hacienda": "Estancia San José rancho", "Distrito": "Etla", "Municipio": "Soledad Etla", "Ubicación": "Estanzuela", "Foto": null, "Video": null, "Prop_1897": "s/d", "Prop_1905": "José Díaz", "Pr_1917-40": "s/d" }, "geometry": { "type": "Point", "coordinates": [ -96.835926244205922, 17.167939696186767 ] } },
{ "type": "Feature", "properties": { "Hacienda": "Guadalupe", "Distrito": "Etla", "Municipio": "San Lorenzo Cacaotepec", "Ubicación": "Vivero San Lorenzo Cacaotepec", "Foto": "https://drive.google.com/file/d/1o0MD-DUsf2Zm84o4wiSkNBj6uUSEJBr6/view?usp=sharing", "Video": null, "Prop_1897": "Carlos Bérges", "Prop_1905": "Carlos Reyes", "Pr_1917-40": "Sra. María G. V da de Berges" }, "geometry": { "type": "Point", "coordinates": [ -96.793714409005148, 17.132488947737698 ] } },
{ "type": "Feature", "properties": { "Hacienda": "Guegonivalle", "Distrito": "Ocotlan", "Municipio": "Ocotlan de Morelos", "Ubicación": "Sitio de Santiago", "Foto": null, "Video": null, "Prop_1897": "Juan Ruviera", "Prop_1905": "Ruviera Hermanos", "Pr_1917-40": "Basilio Carrillo" }, "geometry": { "type": "Point", "coordinates": [ -96.636060076642167, 16.745295733346662 ] } },
{ "type": "Feature", "properties": { "Hacienda": "Guegorene", "Distrito": "Ocotlan", "Municipio": "San Pedro Taviche", "Ubicación": "Ex Hacienda Guegorene", "Foto": null, "Video": "https://youtu.be/2BJwcymUU2A?si=T4kp4_mLwTcAeUY3", "Prop_1897": "Pedro Ramos", "Prop_1905": "Pedro Ramos", "Pr_1917-40": "s/d" }, "geometry": { "type": "Point", "coordinates": [ -96.526131666846069, 16.679718657785045 ] } },
{ "type": "Feature", "properties": { "Hacienda": "Guelavichigana", "Distrito": "Ocotlan", "Municipio": "San Dionisio Ocotlan", "Ubicación": "Guelavichigana la Labor", "Foto": null, "Video": null, "Prop_1897": "Soledad del Pino", "Prop_1905": "Soledad del Pino", "Pr_1917-40": "Sra. Delfina Flores" }, "geometry": { "type": "Point", "coordinates": [ -96.660925443706603, 16.738534266502466 ] } },
{ "type": "Feature", "properties": { "Hacienda": "Guelaxochi", "Distrito": "Miahuatlan", "Municipio": "San Luis Amnatlán", "Ubicación": "Nopalera", "Foto": null, "Video": null, "Prop_1897": "Eleiterio Larralde", "Prop_1905": "Eleiterio Larralde", "Pr_1917-40": "s/d" }, "geometry": { "type": "Point", "coordinates": [ -96.513431057207015, 16.471463385698151 ] } },
{ "type": "Feature", "properties": { "Hacienda": "Guendulain", "Distrito": "Centro", "Municipio": "Santa Maria del Tule", "Ubicación": "Guendulaïn", "Foto": "https://drive.google.com/file/d/1EWQ7tUeHIJmTDpa8B_JeO0WcuU1QY1t9/view?usp=sharing", "Video": null, "Prop_1897": "Mercedes Romero", "Prop_1905": "Miguel Cobo de la Peña", "Pr_1917-40": "Manuel Sáenz /Rosauro Cobo de Sáenz" }, "geometry": { "type": "Point", "coordinates": [ -96.612515233045386, 17.023811370919674 ] } },
{ "type": "Feature", "properties": { "Hacienda": "Hacienda Vieja", "Distrito": "Etla", "Municipio": "San Lorenzo Cacaotepec", "Ubicación": "San Lorenzo Cacaotepec", "Foto": null, "Video": null, "Prop_1897": "s/d", "Prop_1905": "s/d", "Pr_1917-40": "s/d" }, "geometry": { "type": "Point", "coordinates": [ -96.804619956554362, 17.125543928727023 ] } },
{ "type": "Feature", "properties": { "Hacienda": "Húsares", "Distrito": "Centro", "Municipio": "Oaxaca de Juarez", "Ubicación": "Huzares", "Foto": null, "Video": null, "Prop_1897": "s/d", "Prop_1905": "Mariano Bonavides", "Pr_1917-40": "s/d" }, "geometry": { "type": "Point", "coordinates": [ -96.733230840925373, 17.061859159718264 ] } },
{ "type": "Feature", "properties": { "Hacienda": "Jalapilla", "Distrito": "Etla", "Municipio": "San Felipe Tejalápan", "Ubicación": "Agencia Municipal Jalapa del Valle", "Foto": null, "Video": null, "Prop_1897": "s/d", "Prop_1905": "s/d", "Pr_1917-40": "Alejandro Rueda Camacho" }, "geometry": { "type": "Point", "coordinates": [ -96.877563157624849, 17.067922041824193 ] } },
{ "type": "Feature", "properties": { "Hacienda": "La Compañía", "Distrito": "Centro", "Municipio": "Oaxaca de Juarez", "Ubicación": "San Antonio de la Cal", "Foto": null, "Video": null, "Prop_1897": "Carlos y Demetrio Sodi", "Prop_1905": "Sodi Hermanos", "Pr_1917-40": "Señores Sodi y Hermanos" }, "geometry": { "type": "Point", "coordinates": [ -96.704125425719909, 17.035810572838102 ] } },
{ "type": "Feature", "properties": { "Hacienda": "La Gachupina", "Distrito": "Ejutla", "Municipio": "Heroica Ciudad de Ejutla", "Ubicación": "La Noria de Ortiz", "Foto": null, "Video": null, "Prop_1897": "Octaviano Alarcón", "Prop_1905": "Octaviano Alarcón", "Pr_1917-40": "Octaviano Alarcón/ Perfecta Romay" }, "geometry": { "type": "Point", "coordinates": [ -96.72988012491561, 16.693632387855299 ] } },
{ "type": "Feature", "properties": { "Hacienda": "Noria", "Distrito": "Centro", "Municipio": "Oaxaca de Juarez", "Ubicación": "San Jose La Noria", "Foto": null, "Video": null, "Prop_1897": "Francisco Uriarte", "Prop_1905": "Lic. Francisco Parada", "Pr_1917-40": "s/d" }, "geometry": { "type": "Point", "coordinates": [ -96.72018730299996, 17.051793997188941 ] } },
{ "type": "Feature", "properties": { "Hacienda": "La Pé", "Distrito": "Ejutla", "Municipio": "La Pé", "Ubicación": "La Pé", "Foto": "https://drive.google.com/file/d/1SuQpVzGdVr-lPDJhoL1gTb6eqcS9l0U5/view?usp=sharing", "Video": null, "Prop_1897": "Francisco Camacho", "Prop_1905": "José I. Cmacho", "Pr_1917-40": "León Esperón" }, "geometry": { "type": "Point", "coordinates": [ -96.799633583300633, 16.630152294551795 ] } },
{ "type": "Feature", "properties": { "Hacienda": "La Soledad", "Distrito": "Zimatlán", "Municipio": "Santa Catarina Quiané", "Ubicación": "Santa Catarina Quiané", "Foto": "https://drive.google.com/file/d/14djMrfW3ZvtVZ_wfErvOgSkwcSLN1E4w/view?usp=sharing", "Video": null, "Prop_1897": "Herederos de José Ma. Gracida", "Prop_1905": "s/d", "Pr_1917-40": "NULLManuel Gracida (arrendatario José Abscal)" }, "geometry": { "type": "Point", "coordinates": [ -96.740740756700617, 16.888253845519657 ] } },
{ "type": "Feature", "properties": { "Hacienda": "Lachicuvica", "Distrito": "Ocotlan", "Municipio": "San Antonio Castillo Velasco", "Ubicación": "Lachicuvica", "Foto": null, "Video": null, "Prop_1897": "Juan Trápaga López", "Prop_1905": "Testamentaría de Juan Trápaga López", "Pr_1917-40": "Sra. Luz Gómez de S. Trápaga" }, "geometry": { "type": "Point", "coordinates": [ -96.705059673615381, 16.833637229642203 ] } },
{ "type": "Feature", "properties": { "Hacienda": "Mejía", "Distrito": "Zimatlán", "Municipio": "Santa Catarina Quiané", "Ubicación": "Santa Catarina Quiané", "Foto": "https://drive.google.com/file/d/10XtPM4JoalQqLjVali4PSn781bvNPtpn/view?usp=sharing", "Video": null, "Prop_1897": "Herederos de Juan Tincelon", "Prop_1905": "s/d", "Pr_1917-40": "Adolfo Donadieu y herederos de la Sra. Leontina Clement V da. De Ferelón" }, "geometry": { "type": "Point", "coordinates": [ -96.736482742253898, 16.876365565729699 ] } },
{ "type": "Feature", "properties": { "Hacienda": "Molinos de Lazo y ranchos anexos", "Distrito": "Etla", "Municipio": "San Pablo Etla", "Ubicación": "San Sebastián Etla", "Foto": "https://drive.google.com/file/d/18brkVyhgkiZrJN3VYt1VLUb--O9Rh6eO/view?usp=sharing", "Video": "https://youtu.be/PfHxClo5Fes?si=i047dprlnsku5Rg2", "Prop_1897": "Pilar Toro de Cajiga", "Prop_1905": "Testamentaría de la Cajiga", "Pr_1917-40": "s/d" }, "geometry": { "type": "Point", "coordinates": [ -96.781676984197929, 17.160798588759395 ] } },
{ "type": "Feature", "properties": { "Hacienda": "Montaño", "Distrito": "Centro", "Municipio": "Santa María Atzompa", "Ubicación": "Santa Catarina Montaño", "Foto": null, "Video": null, "Prop_1897": "s/d", "Prop_1905": "Soledad C. de Canseco", "Pr_1917-40": "Manuel Canseco" }, "geometry": { "type": "Point", "coordinates": [ -96.801314156308791, 17.091905421487233 ] } },
{ "type": "Feature", "properties": { "Hacienda": "Montoya", "Distrito": "Centro", "Municipio": "Oaxaca de Juarez", "Ubicación": "Montoya", "Foto": null, "Video": null, "Prop_1897": "Francisco García Manzo", "Prop_1905": "Francisco García Manzo", "Pr_1917-40": "Manuel Bustamente" }, "geometry": { "type": "Point", "coordinates": [ -96.757485353596607, 17.074336803189262 ] } },
{ "type": "Feature", "properties": { "Hacienda": "Nazarenos", "Distrito": "Centro", "Municipio": "Santa Cruz Xoxocotlan", "Ubicación": "Lomas de Nazareno", "Foto": null, "Video": null, "Prop_1897": "José Salinas", "Prop_1905": "Testamentaría de Juan Trápaga López", "Pr_1917-40": "José Baigts/ Fam. \"Batche\"" }, "geometry": { "type": "Point", "coordinates": [ -96.761446923999571, 17.019920269056939 ] } },
{ "type": "Feature", "properties": { "Hacienda": "Noriega", "Distrito": "Zimatlán", "Municipio": "Villa de Zaachila", "Ubicación": "Villa de Zachila", "Foto": null, "Video": null, "Prop_1897": "s/d", "Prop_1905": "s/d", "Pr_1917-40": "s/d" }, "geometry": { "type": "Point", "coordinates": [ -96.757431454679562, 16.945123263296956 ] } },
{ "type": "Feature", "properties": { "Hacienda": "Reyes Mantecón", "Distrito": "Centro", "Municipio": "San Bartolo Coyotepec", "Ubicación": "Reyes Mantecón", "Foto": null, "Video": null, "Prop_1897": "Testamentariía de Santibañez", "Prop_1905": "s/d", "Pr_1917-40": "Juan de la Cajiga" }, "geometry": { "type": "Point", "coordinates": [ -96.723987176651789, 16.906424360228048 ] } },
{ "type": "Feature", "properties": { "Hacienda": "San Antonio Buenavista", "Distrito": "Tlacolula", "Municipio": "San Sebastian Teitipac", "Ubicación": "Ex Hacienda San Antonio", "Foto": "https://drive.google.com/file/d/1rA6vg7dv_wxedFs8P4OTGWl8jSU5aCHH/view?usp=sharing", "Video": "https://youtu.be/6wMv6CuoVZE?si=cQLrHgCj4qEOldag", "Prop_1897": "s/d", "Prop_1905": "Guadalupe G Vda de Castro", "Pr_1917-40": "Lic. Carlos Castro" }, "geometry": { "type": "Point", "coordinates": [ -96.63602995413612, 16.939989731790057 ] } },
{ "type": "Feature", "properties": { "Hacienda": "San Isidro", "Distrito": "Etla", "Municipio": "Magadela Apasco", "Ubicación": "Ex Hacienda Catano", "Foto": null, "Video": null, "Prop_1897": "Hijos de Trápaga y Ca.", "Prop_1905": "Trápaga y Cía", "Pr_1917-40": "Sra. Guadalupe Baigts de Sada/ Federico Sada" }, "geometry": { "type": "Point", "coordinates": [ -96.815741099771742, 17.226285620269522 ] } },
{ "type": "Feature", "properties": { "Hacienda": "San Isidro Monjas", "Distrito": "Centro", "Municipio": "Santa Cruz Xoxocotlan", "Ubicación": "Aguayo", "Foto": "https://drive.google.com/file/d/1LorbBplOlhdjLu7eDZejL7in1hMGD6CH/view?usp=sharing", "Video": null, "Prop_1897": "Juan Trápaga", "Prop_1905": "Testamentaria de Juan Trápaga López", "Pr_1917-40": "José Baigts" }, "geometry": { "type": "Point", "coordinates": [ -96.748493217602572, 17.001408511451654 ] } },
{ "type": "Feature", "properties": { "Hacienda": "San Isidro Prío", "Distrito": "Centro", "Municipio": "Santa Cruz Xoxocotlan", "Ubicación": "Paraje Detrás de la Loma", "Foto": null, "Video": null, "Prop_1897": "Testamentaría Juan Ocampo", "Prop_1905": "Testamentaría Juan Ocampo", "Pr_1917-40": "s/d" }, "geometry": { "type": "Point", "coordinates": [ -96.732925413728779, 16.994157932471573 ] } },
{ "type": "Feature", "properties": { "Hacienda": "San José", "Distrito": "Centro", "Municipio": "Santa Maria Atzompa", "Ubicación": "Ex Hacienda San Jose", "Foto": null, "Video": null, "Prop_1897": "Martín Gris", "Prop_1905": "Gilberto Gris", "Pr_1917-40": "Sras. Ma. Isabel Gay de Santaella y Refugio Gay (codueñas)" }, "geometry": { "type": "Point", "coordinates": [ -96.810387140678401, 17.082116659512494 ] } },
{ "type": "Feature", "properties": { "Hacienda": "San José Annac", "Distrito": "Zimatlán", "Municipio": "Trinidad de Zachila", "Ubicación": "Villa de Zachila", "Foto": null, "Video": null, "Prop_1897": "s/d", "Prop_1905": "Mariano Bonavides", "Pr_1917-40": "s/d" }, "geometry": { "type": "Point", "coordinates": [ -96.779781538948441, 16.94626614789297 ] } },
{ "type": "Feature", "properties": { "Hacienda": "San José del Progreso", "Distrito": "Ocotlan", "Municipio": "San Jose del Progeso", "Ubicación": "Ex Hacienda San Jose", "Foto": "https://drive.google.com/file/d/174erVBMZlhOf6isR6RRuE4JWlpt_Bls8/view?usp=sharing", "Video": null, "Prop_1897": "Test. Lic. Fco. Agustín Mimiaga", "Prop_1905": "Mimiaga Hermanos/ 1883 posesion actual de los Sres. Mimiaga", "Pr_1917-40": "Manuel María Mimiaga/ Sra. Marpia Mimiaga Santibañez albacea de la Sucesipon de Mimiaga y Camacho/ Luis Mimiaga y Camacho" }, "geometry": { "type": "Point", "coordinates": [ -96.685350636281811, 16.684597393931682 ] } },
{ "type": "Feature", "properties": { "Hacienda": "San Miguel (Hacienda Experimental)", "Distrito": "Centro", "Municipio": "San Antonio de la Cal", "Ubicación": "Agencia de Policia La Experimental", "Foto": null, "Video": null, "Prop_1897": "José Larragaña", "Prop_1905": "José Larragaña", "Pr_1917-40": "Gobierno estatal" }, "geometry": { "type": "Point", "coordinates": [ -96.705607645938699, 17.023974572099736 ] } },
{ "type": "Feature", "properties": { "Hacienda": "San Nicolás Quialan", "Distrito": "Zimatlán", "Municipio": "Zimatlán de Alvarez", "Ubicación": "San Nicolás Quialana", "Foto": "https://drive.google.com/file/d/1B52kVp87v4MgEdUXRLR7Z3rJyT0PHbmT/view?usp=sharing", "Video": null, "Prop_1897": "Herederos de José Zorrila", "Prop_1905": "s/d", "Pr_1917-40": "Juan Baigts" }, "geometry": { "type": "Point", "coordinates": [ -96.783976671325291, 16.842132081991071 ] } },
{ "type": "Feature", "properties": { "Hacienda": "Sangre de Cristo", "Distrito": "Centro", "Municipio": "Santa Cruz Xoxocotlan", "Ubicación": "Reforma Agraria", "Foto": null, "Video": null, "Prop_1897": "Testamentaría de José Bustamente", "Prop_1905": "Testamentar+ia de José L. Bustamente", "Pr_1917-40": "s/d" }, "geometry": { "type": "Point", "coordinates": [ -96.72161562430172, 17.038773750412155 ] } },
{ "type": "Feature", "properties": { "Hacienda": "Santa Gertrudis", "Distrito": "Zimatlán", "Municipio": "Santa Gertrudis", "Ubicación": "Santa Gestrudis", "Foto": "https://drive.google.com/file/d/1u4Ss7oX_ez23UgEdt6FlobPNkLVXhltV/view?usp=sharing", "Video": null, "Prop_1897": "Nicolás Gil", "Prop_1905": "s/d", "Pr_1917-40": "Compañia de Diversidades S.A en 1935, cuyo presidente era Harloe Hamilton. En 1934 aparece como prop Carlos Hamilton" }, "geometry": { "type": "Point", "coordinates": [ -96.801134493251979, 16.785403668911247 ] } },
{ "type": "Feature", "properties": { "Hacienda": "Santa Rita", "Distrito": "Etla", "Municipio": "San Pablo Etla", "Ubicación": "San Sebastián", "Foto": null, "Video": null, "Prop_1897": "s/d", "Prop_1905": "s/d", "Pr_1917-40": "s/d" }, "geometry": { "type": "Point", "coordinates": [ -96.780769685760987, 17.173106527954978 ] } },
{ "type": "Feature", "properties": { "Hacienda": "Santa Rosa Buenavista", "Distrito": "Tlacolula", "Municipio": "San Sebastian Abasolo", "Ubicación": "Santa Rosa Buena Vista", "Foto": "https://drive.google.com/file/d/1H55BHxMI0e1RD6Z2q_D3Dhhil6zmnYmm/view?usp=sharing", "Video": null, "Prop_1897": "Benito Robles", "Prop_1905": "Lic. Carlos Castro", "Pr_1917-40": "Jesús Martel/IIdelfonso Arresto/ Sucesión de Jorge M. Houston" }, "geometry": { "type": "Point", "coordinates": [ -96.616943927396107, 16.976098992208417 ] } },
{ "type": "Feature", "properties": { "Hacienda": "Santa Rosa Panzacola", "Distrito": "Centro", "Municipio": "Oaxaca de Juarez", "Ubicación": "Santa Rosa Panzacola", "Foto": null, "Video": null, "Prop_1897": "Testamentaría de Francisco Valverde", "Prop_1905": "Hilario Jimenez", "Pr_1917-40": "s/d" }, "geometry": { "type": "Point", "coordinates": [ -96.748699830117914, 17.091433168458632 ] } },
{ "type": "Feature", "properties": { "Hacienda": "Soledad Crespo", "Distrito": "Centro", "Municipio": "Santa Maria Atzompa", "Ubicación": "Escuela de Charreria Ex Hacienda", "Foto": null, "Video": null, "Prop_1897": "Lauro Candiani", "Prop_1905": "Lauro M. Candiani", "Pr_1917-40": "Lauro Candiani. El rancho San Antonio estava en copropiedad d¿con Gonzalo Candiani. En la década de los 1920 está Manuel Bustamente" }, "geometry": { "type": "Point", "coordinates": [ -96.783581412600284, 17.124530912927227 ] } },
{ "type": "Feature", "properties": { "Hacienda": "Soriano", "Distrito": "Tlacolula", "Municipio": "Tlacolula de Matamoros", "Ubicación": "Zona Arqueologica Yagul", "Foto": "https://drive.google.com/file/d/10hTnyITG2LSB7Od3EEommbZybYVNGEF_/view?usp=sharing", "Video": "https://youtu.be/vNSiAcrBp1A?si=GevgdxMxrdmC3Pq7", "Prop_1897": "Mónica Robles", "Prop_1905": "Tiburcio y Manuel Robles", "Pr_1917-40": "Sucesión de Fernando Robles Soledad y Manuel Robles son los sucesores" }, "geometry": { "type": "Point", "coordinates": [ -96.452606129319278, 16.962712604847734 ] } },
{ "type": "Feature", "properties": { "Hacienda": "Taniche", "Distrito": "Ejutla", "Municipio": "Taniche", "Ubicación": "Taniche", "Foto": "https://drive.google.com/file/d/1Rv6OvwRloUE4bE1Wu-BMi643Q6xehWL2/view?usp=sharing", "Video": null, "Prop_1897": "Juan Torres", "Prop_1905": "Juan F. Corres", "Pr_1917-40": "s/d" }, "geometry": { "type": "Point", "coordinates": [ -96.753389035901023, 16.565829368245506 ] } },
{ "type": "Feature", "properties": { "Hacienda": "Tanivé", "Distrito": "Tlacolula", "Municipio": "Tlacolula de Matamoros", "Ubicación": "Tanive", "Foto": "https://drive.google.com/file/d/1K2d9N9uLrDxGyKngqsEju9xmuJp-t7-S/view?usp=sharing", "Video": null, "Prop_1897": "Joanquín Ma. Guergué", "Prop_1905": "Testamentaria Guergué", "Pr_1917-40": "Herederos de Dionicio Martínex" }, "geometry": { "type": "Point", "coordinates": [ -96.436939510764233, 16.922229736516005 ] } },
{ "type": "Feature", "properties": { "Hacienda": "Tejas de Morelos", "Distrito": "Zimatlan", "Municipio": "San pedro Martír", "Ubicación": "Iglesia Tejas de Morelos", "Foto": "https://drive.google.com/file/d/1CgiuWBqOo25JllbhmGKhKVmYEq-p3Sf1/view?usp=sharing", "Video": null, "Prop_1897": "s/d", "Prop_1905": "s/d", "Pr_1917-40": "s/d" }, "geometry": { "type": "Point", "coordinates": [ -96.76861547996684, 16.759617894923412 ] } },
{ "type": "Feature", "properties": { "Hacienda": "Tlanichico", "Distrito": "Zimatlán", "Municipio": "Trinidad de Zachila", "Ubicación": "San Miguel Tlanichico", "Foto": null, "Video": null, "Prop_1897": "Manuel Guargué", "Prop_1905": "s/d", "Pr_1917-40": "s/d" }, "geometry": { "type": "Point", "coordinates": [ -96.779970185158106, 16.93313544629066 ] } },
{ "type": "Feature", "properties": { "Hacienda": "Trapiche San Javier", "Distrito": "Centro", "Municipio": "Santa Cruz Xoxocotlan", "Ubicación": "Lomas de San Javier", "Foto": null, "Video": null, "Prop_1897": "Pedro Munzano", "Prop_1905": "s/d", "Pr_1917-40": "Lic. José Manzano Trovamala" }, "geometry": { "type": "Point", "coordinates": [ -96.771355341583401, 17.028191984804653 ] } },
{ "type": "Feature", "properties": { "Hacienda": "Valdeflores", "Distrito": "Zimatlán", "Municipio": "Zimatlán de Alvarez", "Ubicación": "Valdeflores", "Foto": "https://drive.google.com/file/d/1uKuOqasRTmGF5N2TANRbtUJ56W_qu1SY/view?usp=sharing", "Video": null, "Prop_1897": "Wenceslao García", "Prop_1905": "s/d", "Pr_1917-40": "s/d" }, "geometry": { "type": "Point", "coordinates": [ -96.825640534202748, 16.765398065632652 ] } },
{ "type": "Feature", "properties": { "Hacienda": "Viguera", "Distrito": "Centro", "Municipio": "Oaxaca de Juarez", "Ubicación": "Agencia Municipal Viguera", "Foto": null, "Video": null, "Prop_1897": "Testamentaría de José Antonio Alvarez", "Prop_1905": "Alvarez Hermanos", "Pr_1917-40": "D. Cosme y Compañia" }, "geometry": { "type": "Point", "coordinates": [ -96.755059902329492, 17.12914953340271 ] } },
{ "type": "Feature", "properties": { "Hacienda": "Xaagá", "Distrito": "Tlacolula", "Municipio": "San Pablo Villa de Mitla", "Ubicación": "ZonaArqueologica Xaagá", "Foto": "https://drive.google.com/file/d/1aGq0mKOfZAMbio0XYB1ryTFhlWL6vVw-/view?usp=sharing", "Video": "https://youtu.be/mfRxBFSMa6M?si=1csuJPJa_-6iRNf-", "Prop_1897": "Luis Iñarritu", "Prop_1905": "Luis Iñarritu", "Pr_1917-40": "Luis Iñarritu Flores" }, "geometry": { "type": "Point", "coordinates": [ -96.331064071377909, 16.904043555178816 ] } },
{ "type": "Feature", "properties": { "Hacienda": "Xaguí", "Distrito": "Ejutla", "Municipio": "San Juan Lachigalla", "Ubicación": "Xaguia", "Foto": null, "Video": null, "Prop_1897": "Florencío Ruíz", "Prop_1905": "Florencío Pérez", "Pr_1917-40": "s/d" }, "geometry": { "type": "Point", "coordinates": [ -96.514149709434307, 16.52077508181647 ] } },
{ "type": "Feature", "properties": { "Hacienda": "Yaxe", "Distrito": "Ocotlan", "Municipio": "Yaxe", "Ubicación": "Yaxe", "Foto": "https://drive.google.com/file/d/1aW3EMwMUhg9zzgkOnPdopF6ZM-lgZYoi/view?usp=sharing", "Video": null, "Prop_1897": "Juan Trapaga López", "Prop_1905": "Testamentaría de Juan Trápaga López", "Pr_1917-40": "Testamentaría de Juan Trápaga Tejada (albacea es José Baigts" }, "geometry": { "type": "Point", "coordinates": [ -96.476660795374301, 16.727847681852214 ] } },
{ "type": "Feature", "properties": { "Hacienda": "Yogana", "Distrito": "Ejutla", "Municipio": "Yogana", "Ubicación": "Yogana", "Foto": null, "Video": null, "Prop_1897": "Iliana Ruiz", "Prop_1905": "Maclovio Pérez", "Pr_1917-40": "s/d" }, "geometry": { "type": "Point", "coordinates": [ -96.785719402976483, 16.458532599088304 ] } },
{ "type": "Feature", "properties": { "Hacienda": "Zorita", "Distrito": "Zimatlán", "Municipio": "Villa de Zaachila", "Ubicación": "Balneario Zorita", "Foto": "https://drive.google.com/file/d/1MitmP0818tHd-nnKhp0kIJ3xVXcv56j9/view?usp=sharing", "Video": null, "Prop_1897": "Joaquín Camacho", "Prop_1905": "Joaquín Camacho", "Pr_1917-40": "Srita. Merecedes Sologuren" }, "geometry": { "type": "Point", "coordinates": [ -96.724813626713171, 16.939150933824738 ] } },
{ "type": "Feature", "properties": { "Hacienda": "Zoritana", "Distrito": "Ejutla", "Municipio": "Heroica Ciudad de Ejutla", "Ubicación": "Amapolas", "Foto": null, "Video": null, "Prop_1897": "Pascual Brena", "Prop_1905": "Manuel Larrazabal", "Pr_1917-40": "s/d" }, "geometry": { "type": "Point", "coordinates": [ -96.734470516017453, 16.551372153668357 ] } },
{ "type": "Feature", "properties": { "Hacienda": "Poblete", "Distrito": "Ejutla", "Municipio": "Coatecas ALtas", "Ubicación": "San Antonio Poblete", "Foto": "https://drive.google.com/file/d/1RhZ0NZv_0iWw7Hjm5QzpYr12sGHH0M1F/view?usp=sharing", "Video": null, "Prop_1897": "Ramón Ruiz", "Prop_1905": "Ramón Ruiz", "Pr_1917-40": "Secesión de Ramón Ruiz" }, "geometry": { "type": "Point", "coordinates": [ -96.596002233131003, 16.520659266165943 ] } },
{ "type": "Feature", "properties": { "Hacienda": "La Compañia Ejutla", "Distrito": "Ejutla", "Municipio": "La Compañia", "Ubicación": "La Compañia", "Foto": "https://drive.google.com/file/d/10myZiQUX4vLPd0X49AC1uLMpbNGfIW1t/view?usp=sharing", "Video": null, "Prop_1897": "Juan Barroso", "Prop_1905": "Rodolfo G. Barroso", "Pr_1917-40": "s/d" }, "geometry": { "type": "Point", "coordinates": [ -96.818596207772174, 16.555251519578725 ] } }
]
}
